"id","extralabel","name","latitude","longitude","country"
"SECst","Station","Stockholms central","59.33","18.0573","Sweden"
"SEG","Station","Göteborg Central","57.7089","11.9739","Sweden"
"SEHbgb","ShuntingYard","Helsingborgs godsbangård","56.0271","12.7219","Sweden"
"SEHrbg","ShuntingYard","Hallsbergs rangerbangård","59.0587","15.0593","Sweden"
"SEJögb","ShuntingYard","Jönköpings godsbangård","57.7641","14.1732","Sweden"
"SEMgb","ShuntingYard","Malmö godsbangård","55.622","13.051","Sweden"
"SESär","ShuntingYard","Sävenäs rangerbangård","57.7301","12.0462","Sweden"
"SETm","ShuntingYard","Tomteboda bangård","59.3457","18.0203","Sweden"
"SEVåv","ShuntingYard","Västerås västra","59.5956","16.5077","Sweden"
"SEÅggb","ShuntingYard","Ånge godsbangård","62.5254","15.6428","Sweden"
"SEA","SmallStation","Alingsås","57.9269","12.5322","Sweden"
"SEAal","Junction","Annedal","56.1276","12.9296","Sweden"
"SEAb","SmallStation","Arbrå","61.471","16.3798","Sweden"
"SEAgb","Junction","Agnesberg","57.7811","12.0071","Sweden"
"SEAgg","Junction","Algutsgården","57.9881","12.6519","Sweden"
"SEAhm","Junction","Aleholm","57.3982","14.6635","Sweden"
"SEAjr","SmallStation","Arvidsjaur","65.5887","19.1685","Sweden"
"SEAk","SmallStation","Abisko östra","68.3486","18.8303","Sweden"
"SEAl","Junction","Arlöv","55.6339","13.0684","Sweden"
"SEAlh","SmallStation","Alvhem","58.0108","12.1577","Sweden"
"SEAlä","Junction","Almnäs","59.1694","17.5078","Sweden"
"SEAm","Junction","Almedal","57.684","12.004","Sweden"
"SEAmk","Junction","Arnemark","65.4913","21.2179","Sweden"
"SEAn","Junction","Arvån","64.5584","19.003","Sweden"
"SEAnö","Junction","Anundsjö","63.4266","18.1438","Sweden"
"SEAp","Junction","Aspeå","63.3877","17.5136","Sweden"
"SEApd","Junction","Aplared","57.6512","13.0744","Sweden"
"SEApt","Junction","Aptas","67.7641","20.4434","Sweden"
"SEAr","SmallStation","Arvika","59.6536","12.5908","Sweden"
"SEAra","Junction","Arnäsvall","63.308","18.7859","Sweden"
"SEArb","SmallStation","Arboga","59.3972","15.8405","Sweden"
"SEArnc","SmallStation","Arlanda central","59.6491","17.9285","Sweden"
"SEArne","Junction","Arlanda nedre","59.6327","17.9231","Sweden"
"SEArnn","SmallStation","Arlanda norra","59.6515","17.9298","Sweden"
"SEArns","SmallStation","Arlanda södra","59.6468","17.9283","Sweden"
"SEAtp","Junction","Attarp","56.1372","13.8487","Sweden"
"SEAv","SmallStation","Alvesta","56.898","14.5562","Sweden"
"SEAva","SmallStation","Avaviken","65.6051","18.6509","Sweden"
"SEAvky","SmallStation","Avesta Krylbo","60.1295","16.2161","Sweden"
"SEAx","Junction","Axmarby","61.0074","17.1136","Sweden"
"SEAy","Junction","Alby","62.4901","15.4747","Sweden"
"SEAä","Junction","Alväng","59.379","15.566","Sweden"
"SEB","Junction","Björnlunda","59.0656","17.1547","Sweden"
"SEBaa","SmallStation","Barkåkra","56.2937","12.8246","Sweden"
"SEBaö","Junction","Backsjön","63.3247","17.2995","Sweden"
"SEBbe","Junction","Blyberg","61.1533","14.1378","Sweden"
"SEBdn","SmallStation","Boden central","65.8288","21.7081","Sweden"
"SEBdo","Junction","Broddbo","59.9869","16.4819","Sweden"
"SEBds","Junction","Bodens södra","65.8255","21.6474","Sweden"
"SEBe","Junction","Backe","63.8073","16.4269","Sweden"
"SEBen","Junction","Bredviken","65.8374","23.2332","Sweden"
"SEBet","Junction","Bruksberget","66.0036","22.7136","Sweden"
"SEBf","SmallStation","Brunflo","63.076","14.8326","Sweden"
"SEBfo","SmallStation","Billingsfors","58.982","12.2497","Sweden"
"SEBfs","Junction","Bergfors","68.1473","19.7827","Sweden"
"SEBg","SmallStation","Berga","57.2165","16.0334","Sweden"
"SEBgs","Junction","Bryngenäs","57.8978","12.4876","Sweden"
"SEBgv","Junction","Bälgviken","59.2527","16.4606","Sweden"
"SEBhb","SmallStation","Bräkne-Hoby","56.2314","15.1161","Sweden"
"SEBhs","SmallStation","Bohus","57.864","12.0196","Sweden"
"SEBia","Junction","Birsta","62.4471","17.3126","Sweden"
"SEBib","SmallStation","Billeberga","55.8838","12.9958","Sweden"
"SEBih","SmallStation","Billesholm","56.0564","12.9768","Sweden"
"SEBj","Junction","Björna","63.5514","18.5969","Sweden"
"SEBja","Junction","Bjästa","63.2116","18.4445","Sweden"
"SEBjb","Junction","Björneborg","59.2444","14.2504","Sweden"
"SEBjh","Junction","Bjurhem","58.4285","12.2801","Sweden"
"SEBjm","SmallStation","Bjärnum","56.2929","13.7041","Sweden"
"SEBjn","Junction","Björnkulla","59.2038","17.9286","Sweden"
"SEBjuv","SmallStation","Bjuv","56.0826","12.9111","Sweden"
"SEBjö","Junction","Björnsjö","63.5077","18.4603","Sweden"
"SEBkb","SmallStation","Barkarby","59.4054","17.8637","Sweden"
"SEBld","Junction","Blädinge","56.8415","14.5044","Sweden"
"SEBlgc","SmallStation","Borlänge central","60.4829","15.4255","Sweden"
"SEBln","SmallStation","Björkliden","68.4084","18.6864","Sweden"
"SEBlv","SmallStation","Burlöv","55.6409","13.0804","Sweden"
"SEBma","SmallStation","Blomstermåla","56.9807","16.3321","Sweden"
"SEBml","SmallStation","Bromölla","56.0672","14.4816","Sweden"
"SEBmo","Junction","Båramo","57.4536","14.0907","Sweden"
"SEBn","SmallStation","Bollnäs","61.3495","16.3917","Sweden"
"SEBna","Junction","Brunna","59.8614","17.4289","Sweden"
"SEBoa","SmallStation","Borgstena","57.883","13.0148","Sweden"
"SEBoda","Junction","Boda","61.5905","17.0081","Sweden"
"SEBof","SmallStation","Bofors","59.3333","14.5469","Sweden"
"SEBom","Junction","Bomansberget","60.6508","17.2418","Sweden"
"SEBor","SmallStation","Bor","57.1161","14.1686","Sweden"
"SEBorn","Junction","Born","61.1353","14.643","Sweden"
"SEBoy","SmallStation","Bollebygd","57.6675","12.57","Sweden"
"SEBp","Junction","Brännarp","56.7881","12.7281","Sweden"
"SEBra","Junction","Brista","59.61","17.8672","Sweden"
"SEBrd","Junction","Brännland","63.8806","20.0566","Sweden"
"SEBre","Junction","Bränninge","59.1405","17.6352","Sweden"
"SEBrg","Junction","Brännberg","65.7831","21.2257","Sweden"
"SEBrh","SmallStation","Brattheden","59.788","16.1811","Sweden"
"SEBrl","Junction","Brålanda","58.56","12.349","Sweden"
"SEBrn","Junction","Brånan","62.6938","14.409","Sweden"
"SEBrny","Junction","Bro Nygård","59.4977","17.672","Sweden"
"SEBro","SmallStation","Bro","59.5123","17.633","Sweden"
"SEBrs","Junction","Brattsbacka","63.7848","19.1858","Sweden"
"SEBry","SmallStation","Bankeryd","57.8604","14.1282","Sweden"
"SEBrå","Junction","Bjurå","66.0356","22.1495","Sweden"
"SEBsb","Junction","Bensjöbacken","62.7036","15.4543","Sweden"
"SEBsc","SmallStation","Borås central","57.7203","12.931","Sweden"
"SEBsd","Junction","Brunnsgård","57.4226","15.1069","Sweden"
"SEBsg","SmallStation","Bispgården","63.0287","16.6209","Sweden"
"SEBst","SmallStation","Bastuträsk","64.789","20.0415","Sweden"
"SEBsä","SmallStation","Bjärka-Säby","58.2706","15.7528","Sweden"
"SEBt","Junction","Baggetorp","59.0096","16.0649","Sweden"
"SEBtb","Junction","Brattby","63.911","19.8816","Sweden"
"SEBtp","Junction","Biskopstorp","56.7496","12.8589","Sweden"
"SEBtå","Junction","Betåsen","63.552","16.8137","Sweden"
"SEBu","Junction","Brunsbergstunneln","59.6224","12.9466","Sweden"
"SEBud","Junction","Buddbyn","65.863","21.7084","Sweden"
"SEBva","Junction","Barva","59.3434","16.7928","Sweden"
"SEBvr","Junction","Blackvreten","59.6076","17.9076","Sweden"
"SEBx","SmallStation","Boxholm","58.1929","15.0536","Sweden"
"SEBy","Junction","Byvalla","60.347","16.4163","Sweden"
"SEByä","Junction","Byälven","59.1386","12.9221","Sweden"
"SEBål","SmallStation","Bålsta","59.5694","17.5319","Sweden"
"SEBån","SmallStation","Båstad norra","56.4308","12.9052","Sweden"
"SEBä","SmallStation","Bräcke","62.75","15.4176","Sweden"
"SEBäb","SmallStation","Bäckebron","59.661","13.1662","Sweden"
"SEBäf","Junction","Bäckefors","58.8043","12.1593","Sweden"
"SEBög","Junction","Brännögård","57.0055","13.1008","Sweden"
"SEBön","Junction","Bodsjön","62.8146","15.4213","Sweden"
"SEBöo","SmallStation","Björbo","60.4531","14.7288","Sweden"
"SECas","Junction","Callans såg","62.5135","15.993","Sweden"
"SECg","SmallStation","Charlottenberg","59.8831","12.2993","Sweden"
"SECk","SmallStation","Karlskrona central","56.1671","15.5853","Sweden"
"SECr","SmallStation","Kristianstads central","56.0322","14.1508","Sweden"
"SECrgb","Junction","Kristianstad GBG","56.0412","14.1569","Sweden"
"SECrs","Junction","Kristianstads södra","56.0217","14.1631","Sweden"
"SED","Junction","Degerön","58.7015","15.1518","Sweden"
"SEDat","Junction","Dammstorp","55.8019","13.2832","Sweden"
"SEDbn","Junction","Degerbäcken","65.8395","21.4018","Sweden"
"SEDg","SmallStation","Degerfors","59.2289","14.4404","Sweden"
"SEDgm","Junction","Degermyr","63.8719","19.6059","Sweden"
"SEDgn","Junction","Dalgränsen","60.3828","16.4535","Sweden"
"SEDgö","Junction","Daglösen","59.6421","14.1914","Sweden"
"SEDiö","Junction","Diö norra","56.6361","14.2211","Sweden"
"SEDj","SmallStation","Dala-Järna","60.5477","14.3627","Sweden"
"SEDk","Junction","Dockmyr","62.9546","15.739","Sweden"
"SEDl","SmallStation","Dingle","58.5296","11.5791","Sweden"
"SEDld","SmallStation","Dals Långed","58.9234","12.3062","Sweden"
"SEDma","Junction","Dannemora","60.1961","17.848","Sweden"
"SEDmn","Junction","Domnarvet","60.4937","15.4458","Sweden"
"SEDn","Junction","Dagarn","59.9081","15.7171","Sweden"
"SEDns","Junction","Dynäs","62.9663","17.7377","Sweden"
"SEDrt","Junction","Dals Rostock","58.7135","12.3553","Sweden"
"SEDt","SmallStation","Dingtuna","59.5716","16.3898","Sweden"
"SEDta","SmallStation","Dorotea","64.2582","16.4059","Sweden"
"SEDu","SmallStation","Duved","63.3898","12.9175","Sweden"
"SEDuo","Junction","Duvbo","59.3707","17.9322","Sweden"
"SEDy","Junction","Dysjön","62.628","15.5155","Sweden"
"SEDån","Junction","Dånviken","59.1899","17.7143","Sweden"
"SEDöe","Junction","Drömme","63.2505","18.2202","Sweden"
"SEDöl","Junction","Döljebro","60.994","16.6869","Sweden"
"SEE","SmallStation","Eslöv","55.8377","13.3054","Sweden"
"SEEa","Junction","Eldsberga","56.5909","12.9981","Sweden"
"SEEbg","Junction","Enstaberga","58.751","16.8491","Sweden"
"SEEby","Junction","Ekeby","59.7769","17.7553","Sweden"
"SEEd","SmallStation","Ed","58.9135","11.9329","Sweden"
"SEEi","SmallStation","Erikslund","62.5274","15.9126","Sweden"
"SEEk","SmallStation","Eksjö","57.6638","14.9754","Sweden"
"SEEko","Junction","Ekolsund","59.6141","17.3702","Sweden"
"SEEl","Junction","Edsvalla","59.4358","13.2126","Sweden"
"SEEm","SmallStation","Emmaboda","56.6298","15.5349","Sweden"
"SEEn","SmallStation","Edane","59.6268","12.8293","Sweden"
"SEEns","SmallStation","Enafors","63.2898","12.3373","Sweden"
"SEEp","SmallStation","Enköping","59.6446","17.0887","Sweden"
"SEEr","Junction","Ervalla","59.417","15.2476","Sweden"
"SEEra","Junction","Eneryda","56.7079","14.3397","Sweden"
"SEErk","Junction","Erikstad","58.6314","12.4106","Sweden"
"SEEsn","SmallStation","Ekenässjön","57.4905","15.0189","Sweden"
"SEEt","SmallStation","Eskilstuna central","59.3694","16.5055","Sweden"
"SEEtk","Junction","Ekträsk","64.4962","19.8096","Sweden"
"SEF","SmallStation","Falköpings central","58.1757","13.552","Sweden"
"SEFa","Junction","Finnerödja","58.9262","14.4429","Sweden"
"SEFabg","Junction","Falkenbergs godsstation","56.9016","12.4875","Sweden"
"SEFabp","SmallStation","Falkenberg personstation","56.9195","12.5087","Sweden"
"SEFal","SmallStation","Falerum","58.1436","16.2072","Sweden"
"SEFas","SmallStation","Farsta strand","59.2367","18.1041","Sweden"
"SEFax","Junction","Faxån","63.3508","14.2638","Sweden"
"SEFb","Junction","Forsbacka","60.6397","16.8885","Sweden"
"SEFby","SmallStation","Floby","58.1387","13.3322","Sweden"
"SEFd","SmallStation","Floda","57.81","12.3615","Sweden"
"SEFdf","Junction","Frändefors","58.4943","12.2797","Sweden"
"SEFeb","SmallStation","Fellingsbro","59.4328","15.595","Sweden"
"SEFeö","SmallStation","Fågelsjö","61.8016","14.6821","Sweden"
"SEFfs","Junction","Finnforsfallet","64.7774","20.3331","Sweden"
"SEFg","Junction","Finspång","58.7072","15.7755","Sweden"
"SEFgc","SmallStation","Fagersta central","59.9905","15.8155","Sweden"
"SEFgl","Junction","Fågelsta","58.4586","15.0394","Sweden"
"SEFgå","SmallStation","Fagerås","59.5198","13.2182","Sweden"
"SEFgö","Junction","Fångsjöbacken","63.054","16.781","Sweden"
"SEFhm","SmallStation","Forshem","58.6181","13.4918","Sweden"
"SEFi","Junction","Fiskeby","58.6051","16.1239","Sweden"
"SEFil","Junction","Fillan","62.4262","17.382","Sweden"
"SEFin","Junction","Finja","56.1697","13.6955","Sweden"
"SEFjå","SmallStation","Fjällåsen","67.5194","20.0937","Sweden"
"SEFki","SmallStation","Fjälkinge","56.0414","14.2981","Sweden"
"SEFkr","SmallStation","Fåker","62.9932","14.5744","Sweden"
"SEFl","Junction","Flädie","55.7237","13.074","Sweden"
"SEFlb","SmallStation","Flemingsberg","59.2193","17.9478","Sweden"
"SEFle","SmallStation","Flen","59.0569","16.5853","Sweden"
"SEFln","SmallStation","Falun central","60.6032","15.6417","Sweden"
"SEFlp","Junction","Flackarp","55.6867","13.1581","Sweden"
"SEFls","Junction","Flisby","57.7877","14.8007","Sweden"
"SEFm","SmallStation","Forserum","57.6979","14.4741","Sweden"
"SEFn","Junction","Falköpings norra","58.1951","13.5775","Sweden"
"SEFnö","Junction","Frånö","62.9062","17.8277","Sweden"
"SEFod","SmallStation","Forsheda","57.1633","13.8329","Sweden"
"SEFok","Junction","Folkesta","59.4027","16.4143","Sweden"
"SEFra","SmallStation","Fristad","57.8274","13.0086","Sweden"
"SEFrd","Junction","Frinnaryd","57.9374","14.8219","Sweden"
"SEFre","Junction","Fredrikslund","56.7375","15.9506","Sweden"
"SEFs","SmallStation","Fors","60.2065","16.3115","Sweden"
"SEFsb","SmallStation","Fosieby","55.5623","13.0315","Sweden"
"SEFsm","Junction","Forsmo","63.2639","17.1795","Sweden"
"SEFsö","Junction","Flens övre","59.0616","16.5949","Sweden"
"SEFt","SmallStation","Fränsta","62.496","16.1674","Sweden"
"SEFur","SmallStation","Furet","56.6847","12.8885","Sweden"
"SEFv","SmallStation","Frövi","59.4676","15.3637","Sweden"
"SEFå","Junction","Frillesås","57.3186","12.1696","Sweden"
"SEFär","Junction","Fliskär","60.6865","17.2461","Sweden"
"SEFör","SmallStation","Förslöv","56.3554","12.8014","Sweden"
"SEGa","Junction","Graninge","63.09","16.861","Sweden"
"SEGad","Junction","Granstanda","60.5848","16.3661","Sweden"
"SEGal","SmallStation","Gamleby","57.897","16.4096","Sweden"
"SEGan","SmallStation","Gantofta","55.989","12.809","Sweden"
"SEGau","SmallStation","Garnudden","59.1934","17.7708","Sweden"
"SEGbm","SmallStation","Göteborg Marieholm","57.7354","12.005","Sweden"
"SEGdl","Junction","Geijersdal","59.5984","13.9669","Sweden"
"SEGdö","SmallStation","Gårdsjö","58.8721","14.3338","Sweden"
"SEGe","Junction","Gottne","63.4357","18.3907","Sweden"
"SEGen","Junction","Gåsträsken","66.0471","22.3477","Sweden"
"SEGg","SmallStation","Grängesberg","60.075","15.0034","Sweden"
"SEGgm","Junction","Grängesbergs malmbangård","60.0636","14.9817","Sweden"
"SEGhd","Junction","Grohed","58.2997","11.899","Sweden"
"SEGhyn","Junction","Grythyttans norra","59.7389","14.515","Sweden"
"SEGi","Junction","Gistad","58.4785","15.9144","Sweden"
"SEGia","Junction","Gideåbacka","63.3377","19.0839","Sweden"
"SEGib","Junction","Grillby","59.629","17.234","Sweden"
"SEGim","Junction","Gimonäs","63.7873","20.3159","Sweden"
"SEGk","Junction","Göteborg Kville","57.7273","11.9826","Sweden"
"SEGlt","Junction","Gullträsk","66.1956","21.191","Sweden"
"SEGm","SmallStation","Gemla","56.8708","14.6462","Sweden"
"SEGmo","Junction","Gimo","60.1759","18.1842","Sweden"
"SEGmp","Junction","Gamlarp","57.6808","14.6868","Sweden"
"SEGms","SmallStation","Grums","59.353","13.1138","Sweden"
"SEGn","SmallStation","Gnesta","59.0485","17.3128","Sweden"
"SEGnd","Junction","Genevad","56.571","13.0318","Sweden"
"SEGnf","SmallStation","Gagnef","60.5988","15.081","Sweden"
"SEGng","Junction","Gullringen","57.805","15.7013","Sweden"
"SEGnp","SmallStation","Gnarp","62.0554","17.2429","Sweden"
"SEGnå","Junction","Grönåsen","63.3356","17.3895","Sweden"
"SEGnö","SmallStation","Gnosjö","57.3585","13.735","Sweden"
"SEGo","Junction","Godegård","58.7453","15.1652","Sweden"
"SEGop","SmallStation","Grästorp","58.3346","12.6858","Sweden"
"SEGp","Junction","Gripenberg","57.9986","14.865","Sweden"
"SEGrd","Junction","Grevaryd","57.1499","14.5889","Sweden"
"SEGrm","Junction","Grimsås","57.4824","13.5436","Sweden"
"SEGro","SmallStation","Gubbero","57.7092","11.9982","Sweden"
"SEGrs","Junction","Gransjö","66.0639","21.408","Sweden"
"SEGru","Junction","Grundbro","59.2904","17.1022","Sweden"
"SEGry","Junction","Gryttje","62.0717","17.2807","Sweden"
"SEGrö","Junction","Grötingen","62.854","15.4847","Sweden"
"SEGse","Junction","Gunsen","64.7179","21.0979","Sweden"
"SEGsh","Junction","Göteborg Skandiahamnen","57.6993","11.8592","Sweden"
"SEGsn","Junction","Gastsjön","62.9583","15.8565","Sweden"
"SEGss","SmallStation","Gärsnäs","55.5465","14.1816","Sweden"
"SEGst","SmallStation","Gammelstad","65.641","22.0261","Sweden"
"SEGsv","SmallStation","Göteborg Sävenäs","57.7247","12.0186","Sweden"
"SEGså","Junction","Garsås","60.9133","14.8193","Sweden"
"SEGt","Junction","Grimstorp","57.5568","14.6972","Sweden"
"SEGtf","Junction","Gustafs","60.4014","15.5947","Sweden"
"SEGtå","Junction","Getå","58.6666","16.2634","Sweden"
"SEGua","Junction","Gullberna","56.1876","15.6143","Sweden"
"SEGui","Junction","Gussi","61.2345","17.0964","Sweden"
"SEGun","Junction","Gunnarn","65.0023","17.6749","Sweden"
"SEGv","SmallStation","Gällivare","67.1333","20.6511","Sweden"
"SEGy","Junction","Gäddmyr","67.6795","20.193","Sweden"
"SEGån","Junction","Gålnäs","63.2819","18.6082","Sweden"
"SEGåp","Junction","Gåvetorp","56.9425","14.5794","Sweden"
"SEGä","SmallStation","Gävle central","60.6761","17.1518","Sweden"
"SEGäb","Junction","Gävle godsbangård","60.6812","17.1556","Sweden"
"SEGäg","Junction","Gräsberg","60.2243","15.2233","Sweden"
"SEGö","SmallStation","Gällö","62.9112","15.2295","Sweden"
"SEGön","Junction","Gårdsjön","62.1984","17.3789","Sweden"
"SEHaa","Junction","Hamra","57.0791","12.3105","Sweden"
"SEHak","Junction","Hallstavik","60.0508","18.5958","Sweden"
"SEHan","Junction","Harasjön","63.1734","17.8409","Sweden"
"SEHar","Junction","Harrå","67.4062","20.1027","Sweden"
"SEHb","SmallStation","Helsingborgs central","56.0435","12.6952","Sweden"
"SEHbd","SmallStation","Högboda","59.5575","13.0512","Sweden"
"SEHbr","Junction","Holsbybrunn","57.4278","15.1953","Sweden"
"SEHbä","Junction","Högbränna","63.7687","19.4284","Sweden"
"SEHd","SmallStation","Halmstads central","56.6696","12.8648","Sweden"
"SEHdm","SmallStation","Hedemora","60.2741","15.9802","Sweden"
"SEHdn","SmallStation","Holmsveden","61.1197","16.7191","Sweden"
"SEHdr","Junction","Halmstads rangerbangård","56.6535","12.8863","Sweden"
"SEHe","Junction","Heberg","56.8734","12.6445","Sweden"
"SEHel","SmallStation","Helenelund","59.4176","17.9568","Sweden"
"SEHet","SmallStation","Hestra","57.4431","13.5958","Sweden"
"SEHf","SmallStation","Hultsfred","57.4859","15.8471","Sweden"
"SEHfa","SmallStation","Hemfosa","59.0688","17.9766","Sweden"
"SEHfj","Junction","Hamrångefjärden","60.9011","17.0625","Sweden"
"SEHfr","SmallStation","Hofors","60.5696","16.2662","Sweden"
"SEHfs","Junction","Holmfors","65.9032","21.6876","Sweden"
"SEHg","Junction","Hagaström","60.6704","17.0681","Sweden"
"SEHge","Junction","Hagge","60.1314","15.31","Sweden"
"SEHgl","Junction","Hagalund","59.3721","18.0056","Sweden"
"SEHgv","SmallStation","Häggvik","59.4432","17.9337","Sweden"
"SEHgö","Junction","Högsjö","59.0501","15.7229","Sweden"
"SEHh","SmallStation","Hallstahammar","59.6147","16.2202","Sweden"
"SEHie","SmallStation","Hyllie","55.5631","12.9763","Sweden"
"SEHil","Junction","Hillared","57.6299","13.158","Sweden"
"SEHj","Junction","Hjulsbro","58.3794","15.7165","Sweden"
"SEHjp","SmallStation","Hjärup","55.6738","13.1362","Sweden"
"SEHka","SmallStation","Huskvarna","57.7824","14.2648","Sweden"
"SEHkl","SmallStation","Hudiksvall","61.7247","17.1092","Sweden"
"SEHkö","Junction","Hökön","56.474","14.224","Sweden"
"SEHl","Junction","Horndal","60.3048","16.4137","Sweden"
"SEHlf","SmallStation","Hällefors","59.7777","14.5181","Sweden"
"SEHlm","Junction","Helgum","63.151","16.9499","Sweden"
"SEHlp","Junction","Hasslarp","56.1357","12.8162","Sweden"
"SEHls","SmallStation","Hällnäs","64.3055","19.6259","Sweden"
"SEHlt","Junction","Herrhult","59.6499","14.3107","Sweden"
"SEHly","Junction","Hilleby","60.7304","17.1715","Sweden"
"SEHlö","Junction","Hölö","59.0259","17.5348","Sweden"
"SEHm","SmallStation","Hässleholm","56.1579","13.7632","Sweden"
"SEHma","Junction","Hökmora","60.0621","16.1573","Sweden"
"SEHmfs","Junction","Hissmofors","63.3198","14.4578","Sweden"
"SEHmö","SmallStation","Holmsjö","56.4222","15.5422","Sweden"
"SEHnb","Junction","Hälsingenybo","62.0707","15.8329","Sweden"
"SEHnd","SmallStation","Handen","59.1663","18.1341","Sweden"
"SEHnl","Junction","Hällenyland","62.603","17.7882","Sweden"
"SEHnn","Junction","Hennan","62.0219","15.9024","Sweden"
"SEHno","Junction","Hinsnoret","60.5425","15.6283","Sweden"
"SEHnä","SmallStation","Hälleforsnäs","59.162","16.5026","Sweden"
"SEHo","SmallStation","Habo","57.9064","14.077","Sweden"
"SEHod","Junction","Holmsund","63.7085","20.369","Sweden"
"SEHova","SmallStation","Hova","58.8548","14.2152","Sweden"
"SEHoå","Junction","Holmån","63.3913","17.6483","Sweden"
"SEHp","SmallStation","Haparanda","65.8281","24.1311","Sweden"
"SEHpbg","SmallStation","Hallsbergs personbangård","59.0671","15.1112","Sweden"
"SEHr","SmallStation","Herrljunga","58.0791","13.0209","Sweden"
"SEHre","SmallStation","Horred","57.3537","12.4777","Sweden"
"SEHrl","Junction","Hörle","57.2591","14.0538","Sweden"
"SEHrm","Junction","Hargshamn","60.1692","18.4728","Sweden"
"SEHrt","Junction","Harrträsk","67.0335","20.7143","Sweden"
"SEHs","Junction","Hasselfors","59.0856","14.6463","Sweden"
"SEHsa","Junction","Hovsta","59.3491","15.2187","Sweden"
"SEHsb","Junction","Hedensbyn","64.7448","21.0107","Sweden"
"SEHsd","SmallStation","Härnösands central","62.6353","17.9284","Sweden"
"SEHsr","SmallStation","Hasslerör","58.7502","13.9395","Sweden"
"SEHsy","Junction","Hussjöby","62.5475","17.6057","Sweden"
"SEHsö","Junction","Hörnsjö","63.7953","19.5074","Sweden"
"SEHt","Junction","Hednoret","65.8234","21.5319","Sweden"
"SEHtg","SmallStation","Hoting","64.1156","16.1991","Sweden"
"SEHto","SmallStation","Hillerstorp","57.3136","13.8836","Sweden"
"SEHu","SmallStation","Huddinge","59.2357","17.978","Sweden"
"SEHud","Junction","Hulingsryd","57.501","15.8352","Sweden"
"SEHul","SmallStation","Hult","57.6445","15.1288","Sweden"
"SEHumn","Junction","Husums norra","63.3483","19.1676","Sweden"
"SEHuv","Junction","Huvudsta","59.3548","18.0006","Sweden"
"SEHuö","Junction","Hundsjön","65.9652","21.8027","Sweden"
"SEHv","SmallStation","Hästveda","56.2886","13.9348","Sweden"
"SEHvd","SmallStation","Hjältevad","57.6289","15.344","Sweden"
"SEHvp","SmallStation","Hovmantorp","56.7862","15.1396","Sweden"
"SEHvr","SmallStation","Håverud","58.8246","12.4129","Sweden"
"SEHy","SmallStation","Heby","59.9404","16.8532","Sweden"
"SEHyl","Junction","Hyllstofta","56.1325","13.2859","Sweden"
"SEHå","Junction","Håsjö","63.0234","16.273","Sweden"
"SEHåg","Junction","Harmånger","61.9035","17.2689","Sweden"
"SEHåk","Junction","Håmojåkk","67.3241","20.1679","Sweden"
"SEHål","Junction","Hållsta","59.2952","16.4586","Sweden"
"SEHåp","SmallStation","Håkantorp","58.3067","12.9076","Sweden"
"SEHås","SmallStation","Hindås","57.7044","12.451","Sweden"
"SEHä","Junction","Hästbo","60.449","16.4553","Sweden"
"SEHäb","Junction","Hämrasviken","63.2241","18.0409","Sweden"
"SEHäd","Junction","Härad","59.3571","16.9132","Sweden"
"SEHän","Junction","Häggsjön","62.5745","17.7314","Sweden"
"SEHäy","Junction","Härryda","57.6897","12.3036","Sweden"
"SEHö","SmallStation","Höör","55.9375","13.5431","Sweden"
"SEHög","Junction","Högbysjön","63.3127","18.8902","Sweden"
"SEHöja","Junction","Höja","59.2998","14.1345","Sweden"
"SEHön","Junction","Högdalen","59.2574","18.042","Sweden"
"SEHös","Junction","Hössjön","63.6553","19.9723","Sweden"
"SEId","SmallStation","Iggesund","61.6448","17.0814","Sweden"
"SEIn","SmallStation","Insjön","60.6755","15.0944","Sweden"
"SEIst","Junction","Isätra","59.9377","16.7441","Sweden"
"SEJ","Junction","Jonsered östra","57.7512","12.1922","Sweden"
"SEJb","Junction","Järbo","60.715","16.6031","Sweden"
"SEJbg","Junction","Johannisberg","62.504","16.0289","Sweden"
"SEJbk","Junction","Jädersbruk","59.4072","15.7984","Sweden"
"SEJbo","SmallStation","Jordbro","59.1423","18.1266","Sweden"
"SEJho","Junction","Jakobshyttan","58.808","15.1594","Sweden"
"SEJk","SmallStation","Jokkmokk","66.6071","19.8401","Sweden"
"SEJkb","SmallStation","Jakobsberg","59.4238","17.8331","Sweden"
"SEJla","Junction","Järlåsa","59.885","17.2031","Sweden"
"SEJlo","Junction","Järlebo","60.1344","17.7419","Sweden"
"SEJn","SmallStation","Järna","59.0938","17.5684","Sweden"
"SEJnt","Junction","Järneträsk","65.639","20.7401","Sweden"
"SEJpn","SmallStation","Järpen","63.3424","13.4722","Sweden"
"SEJps","SmallStation","Järpås","58.379","12.97","Sweden"
"SEJr","SmallStation","Järvsö","61.7157","16.1721","Sweden"
"SEJrn","SmallStation","Jörn","65.0533","20.0294","Sweden"
"SEJs","SmallStation","Jämtlands Sikås","63.6262","15.2065","Sweden"
"SEJu","Junction","Jularbo","60.1583","16.2577","Sweden"
"SEJå","Junction","Juån","62.3692","15.5623","Sweden"
"SEJår","Junction","Jönåker","58.7433","16.7247","Sweden"
"SEJäy","Junction","Järlövsby","57.2785","12.3613","Sweden"
"SEJö","SmallStation","Jönköpings central","57.7845","14.1646","Sweden"
"SEK","SmallStation","Katrineholms central","58.9965","16.2092","Sweden"
"SEKa","SmallStation","Kattarp","56.1449","12.7783","Sweden"
"SEKaa","Junction","Koijuvaara","67.0578","20.7311","Sweden"
"SEKac","SmallStation","Kalmar central","56.6613","16.3603","Sweden"
"SEKap","Junction","Karpalund","56.0407","14.0947","Sweden"
"SEKas","Junction","Kalmar södra","56.6667","16.3311","Sweden"
"SEKat","Junction","Kattisavan","64.7534","18.16","Sweden"
"SEKaä","Junction","Kattisträsk","64.6893","20.0328","Sweden"
"SEKb","SmallStation","Kungsbacka","57.4895","12.0799","Sweden"
"SEKbn","SmallStation","Karbenning","60.0368","16.0732","Sweden"
"SEKbä","SmallStation","Kolbäck","59.5643","16.2334","Sweden"
"SEKd","SmallStation","Kågeröd","56.0015","13.0828","Sweden"
"SEKde","SmallStation","Kode","57.9445","11.8509","Sweden"
"SEKe","SmallStation","Karlberg","59.3403","18.0284","Sweden"
"SEKeb","Junction","Kejsarbäcken","59.8334","14.7125","Sweden"
"SEKei","Junction","Keräsjoki","65.8466","23.924","Sweden"
"SEKfn","SmallStation","Kolforsen","60.8431","16.8512","Sweden"
"SEKg","SmallStation","Kävlinge","55.7945","13.1114","Sweden"
"SEKgd","Junction","Kungsgården","60.6024","16.6211","Sweden"
"SEKgs","Junction","Kragenäs","58.7987","11.2531","Sweden"
"SEKgå","Junction","Klostergården","55.6944","13.1712","Sweden"
"SEKh","SmallStation","Karlshamn","56.1771","14.8664","Sweden"
"SEKhn","SmallStation","Kristinehamn","59.3174","14.1071","Sweden"
"SEKhy","Junction","Klenshyttan","60.1079","15.1043","Sweden"
"SEKhä","SmallStation","Kallhäll","59.4523","17.8073","Sweden"
"SEKia","Junction","Kirunavaara","67.802","20.1989","Sweden"
"SEKil","SmallStation","Kil","59.5047","13.3159","Sweden"
"SEKisa","SmallStation","Kisa","57.9846","15.6341","Sweden"
"SEKju","Junction","Kjula","59.3373","16.6614","Sweden"
"SEKl","SmallStation","Klippan","56.1307","13.13","Sweden"
"SEKla","SmallStation","Kumla","59.1275","15.141","Sweden"
"SEKlbn","Junction","Klockarbäcken","63.8562","20.1421","Sweden"
"SEKlh","Junction","Kallholsfors","61.1674","14.7042","Sweden"
"SEKln","Junction","Kälarne","62.9806","16.0832","Sweden"
"SEKlr","Junction","Koler","65.4958","20.4932","Sweden"
"SEKls","SmallStation","Kilafors","61.2307","16.5704","Sweden"
"SEKlv","Junction","Kilvo","66.8309","20.8947","Sweden"
"SEKlx","Junction","Kalix Östra","65.8566","23.1803","Sweden"
"SEKm","Junction","Kilsmo","59.0657","15.5357","Sweden"
"SEKmb","SmallStation","Kiruna malmbangård","67.8683","20.1992","Sweden"
"SEKms","SmallStation","Kimstad","58.5363","15.9688","Sweden"
"SEKn","SmallStation","Knivsta","59.7254","17.7871","Sweden"
"SEKng","Junction","Kvarnängen","58.9293","17.9275","Sweden"
"SEKnl","SmallStation","Knalleland","57.7341","12.9426","Sweden"
"SEKnä","Junction","Knäred","56.5155","13.3115","Sweden"
"SEKoe","Junction","Kolke","59.0584","17.2148","Sweden"
"SEKoj","Junction","Kosjärv","65.9313","22.8414","Sweden"
"SEKon","SmallStation","Kolmården","58.6747","16.3625","Sweden"
"SEKos","Junction","Koskullskulle","67.187","20.7327","Sweden"
"SEKoä","Junction","Korsnäs","60.5861","15.7127","Sweden"
"SEKp","SmallStation","Köping","59.5062","16.0066","Sweden"
"SEKpe","Junction","Kaisepakte","68.2857","19.3033","Sweden"
"SEKpg","SmallStation","Kopparberg","59.8726","14.9869","Sweden"
"SEKpm","Junction","Köpmannebro","58.7685","12.5071","Sweden"
"SEKrb","Junction","Karsbäcken","64.9029","19.996","Sweden"
"SEKrd","SmallStation","Kållered","57.6155","12.0462","Sweden"
"SEKrf","SmallStation","Kramfors","62.929","17.7782","Sweden"
"SEKrl","Junction","Kringlan","60.9659","17.0549","Sweden"
"SEKrn","Junction","Krampen","59.7425","15.5797","Sweden"
"SEKroj","Junction","Krokom OJ","63.3385","14.4127","Sweden"
"SEKröb","Junction","Krökesbo","57.7071","14.5032","Sweden"
"SEKs","SmallStation","Karlstads central","59.3779","13.499","Sweden"
"SEKsg","Junction","Karlsberg","62.9413","15.6407","Sweden"
"SEKst","Junction","Kistinge","56.6385","12.914","Sweden"
"SEKsu","SmallStation","Kvicksund","59.4581","16.3095","Sweden"
"SEKsö","Junction","Karsjö","61.6402","16.2615","Sweden"
"SEKtä","Junction","Korsträsk","65.6647","20.8646","Sweden"
"SEKud","Junction","Klingerud","59.4833","13.3608","Sweden"
"SEKv","SmallStation","Krokvik","67.9312","20.0667","Sweden"
"SEKva","Junction","Koskivaara","66.6494","20.9845","Sweden"
"SEKvf","Junction","Kvillsfors","57.4033","15.4957","Sweden"
"SEKvh","SmallStation","Klevshult","57.3516","14.0973","Sweden"
"SEKvi","SmallStation","Kvidinge","56.1372","13.0461","Sweden"
"SEKvä","SmallStation","Karlstad Välsviken","59.3911","13.5821","Sweden"
"SEKx","Junction","Kalixfors","67.7415","20.2086","Sweden"
"SEKå","Junction","Kopparåsen","68.4263","18.5036","Sweden"
"SEKåb","SmallStation","Kåbdalis","66.1528","19.9887","Sweden"
"SEKä","Junction","Källeryd","58.1146","13.1936","Sweden"
"SEKäb","Junction","Kärreberga","56.1384","12.9835","Sweden"
"SEKäe","Junction","Källene","61.3335","17.0167","Sweden"
"SEKän","SmallStation","Kungsängen","59.4781","17.7528","Sweden"
"SEKäv","Junction","Kälvattnet","63.4215","17.9778","Sweden"
"SEKöa","Junction","Könsa","63.3911","19.1899","Sweden"
"SEKör","SmallStation","Kungsör","59.4278","16.1031","Sweden"
"SELa","SmallStation","Ludvika","60.1499","15.1825","Sweden"
"SELab","Junction","Lappberg","67.593","20.1961","Sweden"
"SELaov","SmallStation","Laholm västra","56.5027","12.9994","Sweden"
"SELd","SmallStation","Lindesberg","59.5945","15.2286","Sweden"
"SELdl","Junction","Lidlund","64.9822","20.0254","Sweden"
"SELdo","SmallStation","Lindome","57.576","12.0787","Sweden"
"SELe","SmallStation","Luleå","65.5841","22.1656","Sweden"
"SELea","Junction","Leksboda","60.7766","15.0202","Sweden"
"SELek","Junction","Lekarekulle","57.4044","12.1518","Sweden"
"SELet","Junction","Lilla Edet","58.1318","12.1258","Sweden"
"SELg","SmallStation","Läggesta","59.2475","17.1691","Sweden"
"SELgb","SmallStation","Långbron","58.9365","12.2799","Sweden"
"SELgd","Junction","Ledsgård","57.5286","12.096","Sweden"
"SELgm","SmallStation","Linghem","58.4363","15.7851","Sweden"
"SELin","Junction","Linaälv","67.2568","20.2393","Sweden"
"SELit","SmallStation","Lit","63.3184","14.8567","Sweden"
"SELj","SmallStation","Ljungskile","58.2248","11.921","Sweden"
"SELju","SmallStation","Ljung","57.9865","13.0533","Sweden"
"SELjun","Junction","Ljungaverks lastplats","62.4961","16.0783","Sweden"
"SELkm","Junction","Lökom","63.1652","17.6017","Sweden"
"SELkn","Junction","Lindekullen","58.2553","15.0959","Sweden"
"SELkp","SmallStation","Lidköping","58.5044","13.1651","Sweden"
"SELkä","Junction","Lakaträsk","66.2753","21.1253","Sweden"
"SELkö","SmallStation","Landskrona Östra","55.8791","12.8574","Sweden"
"SELln","Junction","Linddalen","59.0114","14.7691","Sweden"
"SELma","SmallStation","Lomma","55.671","13.0744","Sweden"
"SELme","SmallStation","Limmared","57.534","13.3535","Sweden"
"SELmm","Junction","Lemmeströ","55.4916","13.3637","Sweden"
"SELmn","Junction","Långviksmon","63.6335","18.6926","Sweden"
"SELmo","Junction","Löcknamon","58.9134","15.0712","Sweden"
"SELms","Junction","Lomselenäs","65.2156","17.6464","Sweden"
"SELns","Junction","Lidnäs","57.0701","14.6003","Sweden"
"SELnv","Junction","Långvattnet","63.6529","18.7313","Sweden"
"SELnå","SmallStation","Lugnås","58.6443","13.7019","Sweden"
"SELo","SmallStation","Lessebo","56.7506","15.2585","Sweden"
"SELot","Junction","Lottefors","61.4202","16.4115","Sweden"
"SELp","SmallStation","Linköpings central","58.417","15.6243","Sweden"
"SELr","SmallStation","Lerum","57.7694","12.2728","Sweden"
"SELrd","SmallStation","Landeryd","57.0767","13.2656","Sweden"
"SELre","Junction","Lästringe","58.8751","17.3272","Sweden"
"SELrg","Junction","Laduberg","65.7218","21.11","Sweden"
"SELrp","Junction","Lockarp","55.5472","13.0408","Sweden"
"SELs","SmallStation","Ljusdal","61.8268","16.0965","Sweden"
"SELsb","Junction","Ljusne bruk","61.2171","17.1166","Sweden"
"SELsd","SmallStation","Leksand","60.734","15.003","Sweden"
"SELsj","Junction","Långsjön","60.5873","16.0915","Sweden"
"SELsl","SmallStation","Långsele","63.1764","17.0672","Sweden"
"SELsn","Junction","Losesjön","61.4105","16.9945","Sweden"
"SELsp","Junction","Lycksele industrispår","64.5895","18.6995","Sweden"
"SELså","Junction","Ljuså","65.9779","21.6004","Sweden"
"SELtk","Junction","Långträsk","65.3774","20.3363","Sweden"
"SELtr","Junction","Loster","61.9395","15.9491","Sweden"
"SELu","SmallStation","Lund c","55.7072","13.1866","Sweden"
"SELub","Junction","Lundby","59.6546","16.9278","Sweden"
"SELuå","Junction","Lustån","60.2361","16.0088","Sweden"
"SELuä","Junction","Lubboträsk","64.5591","19.9294","Sweden"
"SELvd","Junction","Lövliden","64.6545","16.6124","Sweden"
"SELve","SmallStation","Lovene","58.4402","13.0466","Sweden"
"SELy","SmallStation","Lycksele","64.5943","18.6688","Sweden"
"SELyd","SmallStation","Lyrestad","58.8049","14.0566","Sweden"
"SELyg","Junction","Lyckselesågen","64.5927","18.7285","Sweden"
"SELyt","Junction","Lycksele timmer","64.5903","18.7575","Sweden"
"SELyv","SmallStation","Lysvik","60.016","13.1378","Sweden"
"SELå","SmallStation","Laxå","58.9889","14.6146","Sweden"
"SELö","Junction","Lörstrand","61.6588","16.1655","Sweden"
"SELöb","SmallStation","Lövberga","63.9613","15.8524","Sweden"
"SELöö","Junction","Lödöse","58.0275","12.1512","Sweden"
"SEM","SmallStation","Malmö central","55.6097","13.0002","Sweden"
"SEMa","Junction","Mattmar","63.3033","13.8302","Sweden"
"SEMaj","Junction","Maj","62.2331","17.4014","Sweden"
"SEMb","Junction","Mobodarne","61.2809","16.7148","Sweden"
"SEMby","Junction","Malmby","59.3439","17.0535","Sweden"
"SEMbä","SmallStation","Malmbäck","57.578","14.4604","Sweden"
"SEMdl","Junction","Moradal","62.5638","15.5477","Sweden"
"SEMdm","Junction","Mariedamm","58.8529","15.162","Sweden"
"SEMdn","SmallStation","Mölndals nedre","57.6634","12.0167","Sweden"
"SEMdö","Junction","Mölndals övre","57.6585","12.031","Sweden"
"SEMe","Junction","Marmaverken","61.2705","16.8634","Sweden"
"SEMfj","SmallStation","Mockfjärd","60.4958","14.9584","Sweden"
"SEMfn","SmallStation","Munkflohögen","63.5601","14.949","Sweden"
"SEMh","Junction","Moholm","58.6071","14.0402","Sweden"
"SEMhn","Junction","Myrheden","65.2995","20.2159","Sweden"
"SEMi","SmallStation","Mörsil","63.3085","13.6577","Sweden"
"SEMia","SmallStation","Maria","56.0756","12.7106","Sweden"
"SEMjv","Junction","Morjärv","66.0697","22.6952","Sweden"
"SEMk","SmallStation","Murjek","66.4841","20.8807","Sweden"
"SEMkl","SmallStation","Munkedal","58.4669","11.675","Sweden"
"SEMl","SmallStation","Mellerud","58.7018","12.4648","Sweden"
"SEMlb","Junction","Mellby","56.0749","13.7373","Sweden"
"SEMlf","SmallStation","Meselefors","64.443","16.8167","Sweden"
"SEMlg","SmallStation","Malung","60.6836","13.7104","Sweden"
"SEMlö","Junction","Mellösa","59.1008","16.5596","Sweden"
"SEMnd","SmallStation","Mariannelund","57.616","15.5853","Sweden"
"SEMo","SmallStation","Moheda","57.0031","14.5766","Sweden"
"SEMog","Junction","Mo grindar","60.9421","16.7117","Sweden"
"SEMon","Junction","Mon","58.909","11.7658","Sweden"
"SEMorp","Junction","Munktorp","59.5332","16.1341","Sweden"
"SEMos","SmallStation","Moskosel","65.8824","19.4266","Sweden"
"SEMot","SmallStation","Motala central","58.5375","15.0482","Sweden"
"SEMr","SmallStation","Märsta","59.6277","17.8616","Sweden"
"SEMras","SmallStation","Morastrand","61.0049","14.5426","Sweden"
"SEMrc","SmallStation","Mora central","61.0087","14.5591","Sweden"
"SEMrd","SmallStation","Markaryd","56.4596","13.5939","Sweden"
"SEMrm","Junction","Marma","60.4801","17.421","Sweden"
"SEMrs","Junction","Morshyttan","60.2619","16.3754","Sweden"
"SEMru","SmallStation","Mörrum","56.1869","14.743","Sweden"
"SEMs","Junction","Mosås","59.1978","15.1626","Sweden"
"SEMsj","Junction","Malmsjö","59.1541","17.7626","Sweden"
"SEMsl","SmallStation","Mellansel","63.4282","18.3067","Sweden"
"SEMsn","Junction","Medskogsheden","60.7912","16.6992","Sweden"
"SEMss","Junction","Mönsterås","57.0401","16.4469","Sweden"
"SEMst","SmallStation","Mariestad","58.7113","13.8257","Sweden"
"SEMsö","Junction","Mellansjö","62.3078","15.6822","Sweden"
"SEMt","SmallStation","Mantorp","58.348","15.2882","Sweden"
"SEMtm","Junction","Maitum","66.3902","19.7025","Sweden"
"SEMtn","Junction","Mertainen","67.6778","20.8438","Sweden"
"SEMu","SmallStation","Mullsjö","57.915","13.8814","Sweden"
"SEMud","SmallStation","Mosselund","56.2158","13.8504","Sweden"
"SEMy","SmallStation","Mjölby","58.3227","15.1321","Sweden"
"SEMyk","SmallStation","Mölnlycke","57.657","12.1187","Sweden"
"SEMyn","Junction","Myrbacken","59.694","17.8077","Sweden"
"SEMyra","Junction","Myra","61.5065","16.9873","Sweden"
"SEMå","SmallStation","Morgongåva","59.9329","16.9614","Sweden"
"SEMåp","SmallStation","Månsarp","57.654","14.0711","Sweden"
"SEMö","SmallStation","Mölnbo","59.0474","17.4183","Sweden"
"SEMöa","SmallStation","Mörlunda","57.3223","15.8756","Sweden"
"SEMöl","Junction","Mörtsal","62.7825","17.926","Sweden"
"SEMör","SmallStation","Mörarp","56.0554","12.8736","Sweden"
"SEN","SmallStation","Nässjö central","57.6514","14.6947","Sweden"
"SENb","Junction","Näsberg","66.3648","21.0094","Sweden"
"SENdv","Junction","Norsesund västra","57.8588","12.4338","Sweden"
"SENg","Junction","Norrhög","62.2392","15.6582","Sweden"
"SENh","Junction","Norsholm","58.5069","15.972","Sweden"
"SENjb","SmallStation","Njurundabommen","62.2675","17.3774","Sweden"
"SENk","SmallStation","Nyköpings central","58.7566","16.9971","Sweden"
"SENka","SmallStation","Nykroppa","59.6225","14.3084","Sweden"
"SENkr","Junction","Norra Kikkejaur","65.638","19.136","Sweden"
"SENks","Junction","Nyköping södra","58.7476","17.0008","Sweden"
"SENkt","Junction","Näverkärret","59.6653","15.5272","Sweden"
"SENkv","SmallStation","Nykvarn","59.1787","17.4321","Sweden"
"SENl","SmallStation","Nelhammar","58.0898","16.325","Sweden"
"SENly","Junction","Nolby","62.2884","17.3761","Sweden"
"SENml","Junction","Niemisel","66.0281","22.0015","Sweden"
"SENoe","Junction","Norrmjöle","63.702","20.0878","Sweden"
"SENog","SmallStation","Nordmaling","63.5784","19.4823","Sweden"
"SENon","Junction","Norrsjön","63.5832","19.6","Sweden"
"SENosk","Junction","Nordskogen","57.7503","12.9501","Sweden"
"SENr","SmallStation","Norrköpings central","58.5963","16.1817","Sweden"
"SENrs","Junction","Norrfors","63.7689","18.9986","Sweden"
"SENrt","Junction","Nuortikon","66.8835","20.8207","Sweden"
"SENsj","Junction","Nyckelsjön","59.0878","16.8668","Sweden"
"SENst","Junction","Stockholms norra","59.3475","18.0335","Sweden"
"SENsö","Junction","Nedansjö","62.3747","16.8525","Sweden"
"SENta","Junction","Nacksta","62.3986","17.2472","Sweden"
"SENtv","SmallStation","Nattavaara","66.7543","20.9501","Sweden"
"SENvl","Junction","Norra Valbo","60.6615","17.0135","Sweden"
"SENvn","SmallStation","Notviken","65.6107","22.1187","Sweden"
"SENy","Junction","Nyhem","62.8919","15.6133","Sweden"
"SENyb","SmallStation","Nybro","56.7424","15.909","Sweden"
"SENyc","SmallStation","Nynäshamns centrum","58.9002","17.9497","Sweden"
"SENyf","Junction","Nyfors","65.6718","20.9644","Sweden"
"SENyå","Junction","Nyåker","63.7701","19.313","Sweden"
"SENä","SmallStation","Nälden","63.3506","14.2631","Sweden"
"SENät","Junction","Nättraby","56.211","15.5271","Sweden"
"SEO","SmallStation","Osby","56.3812","13.9957","Sweden"
"SEOb","SmallStation","Ockelbo","60.8912","16.7209","Sweden"
"SEOf","SmallStation","Olofström","56.2791","14.5197","Sweden"
"SEOh","SmallStation","Oskarshamn","57.2629","16.4576","Sweden"
"SEOm","SmallStation","Oskarström","56.8065","12.972","Sweden"
"SEOmb","Junction","Ombenning","59.9809","15.9265","Sweden"
"SEOpe","Junction","Ope","63.1339","14.7462","Sweden"
"SEOr","Junction","Olskroken","57.7184","11.9988","Sweden"
"SEOrn","Junction","Ornäs","60.5072","15.5349","Sweden"
"SEOrs","SmallStation","Orsa","61.1191","14.6211","Sweden"
"SEOry","SmallStation","Ormaryd","57.6656","14.8314","Sweden"
"SEOs","Junction","Orrskog","60.4045","17.4005","Sweden"
"SEOsl","SmallStation","Oslättfors","60.773","16.9788","Sweden"
"SEOsö","Junction","Ovansjö","62.5172","15.5938","Sweden"
"SEOt","SmallStation","Ottebol","59.698","12.4616","Sweden"
"SEOxd","Junction","Oxelösund","58.6705","17.0999","Sweden"
"SEOxm","Junction","Oxmyran","63.7734","19.2369","Sweden"
"SEP","SmallStation","Partille","57.7407","12.1026","Sweden"
"SEPc","Junction","Polcirkeln","66.5673","21.0212","Sweden"
"SEPea","Junction","Peuravaara","67.8729","20.1574","Sweden"
"SEPii","Junction","Pitkäjärvi","67.6642","20.9399","Sweden"
"SEPj","SmallStation","Porjus","66.9661","19.8297","Sweden"
"SEPl","SmallStation","Pilgrimstad","62.955","15.0404","Sweden"
"SEPt","SmallStation","Perstorp","56.1364","13.3986","Sweden"
"SEPtå","Junction","Piteå","65.3179","21.4681","Sweden"
"SEPå","Junction","Pålsboda","59.0639","15.3401","Sweden"
"SEPåa","SmallStation","Påarp","56.0293","12.8172","Sweden"
"SEPö","Junction","Pålsjö","56.0684","12.6983","Sweden"
"SEPöb","Junction","Pölsebo","57.6995","11.8991","Sweden"
"SER","SmallStation","Rotebro","59.4755","17.9153","Sweden"
"SERan","Junction","Rian","65.8913","23.0088","Sweden"
"SERas","Junction","Ralingsås","57.877","14.8037","Sweden"
"SERb","SmallStation","Ronneby","56.2064","15.2836","Sweden"
"SERbh","SmallStation","Rabbalshede","58.6101","11.4707","Sweden"
"SERbo","Junction","Röstbo","61.1751","16.6732","Sweden"
"SERby","Junction","Rockneby","56.8073","16.3411","Sweden"
"SERbä","Junction","Repbäcken","60.5142","15.3434","Sweden"
"SERd","SmallStation","Rävlanda","57.6544","12.5003","Sweden"
"SERdg","SmallStation","Rydsgård","55.4742","13.5885","Sweden"
"SERf","SmallStation","Rimforsa","58.1353","15.6817","Sweden"
"SERft","SmallStation","Reftele","57.1759","13.5935","Sweden"
"SERjn","SmallStation","Röjan","62.4792","14.3592","Sweden"
"SERk","Junction","Rörvik","57.2302","14.5829","Sweden"
"SERke","Junction","Rekarne","59.4276","16.3408","Sweden"
"SERlå","Junction","Rällså","59.797","15.0975","Sweden"
"SERmh","Junction","Rämshyttan","60.2983","15.2224","Sweden"
"SERmtp","Junction","Regumatorp","58.317","13.7903","Sweden"
"SERob","Junction","Roback","63.0204","16.1617","Sweden"
"SERos","Junction","Rossön","63.9212","16.3488","Sweden"
"SERps","Junction","Ripats","66.9719","20.7316","Sweden"
"SERs","SmallStation","Rosersberg","59.5844","17.8798","Sweden"
"SERsi","Junction","Råtsi","67.791","20.2405","Sweden"
"SERsn","SmallStation","Rensjön","68.0707","19.8269","Sweden"
"SERsö","Junction","Ramsjö","62.16","15.6763","Sweden"
"SERt","SmallStation","Ransta","59.8102","16.64","Sweden"
"SERte","Junction","Röste","61.3802","16.3918","Sweden"
"SERts","SmallStation","Rottneros","59.795","13.1287","Sweden"
"SERu","SmallStation","Ragunda","63.0584","16.4123","Sweden"
"SERud","Junction","Ruda","57.1104","16.1164","Sweden"
"SERuk","Junction","Rundvik","63.5461","19.4143","Sweden"
"SERus","Junction","Runsala","58.869","15.1531","Sweden"
"SERut","SmallStation","Rautas","67.9943","19.8986","Sweden"
"SERv","SmallStation","Rättvik","60.8847","15.1157","Sweden"
"SERy","Junction","Rosshyttan","60.0686","16.3541","Sweden"
"SERyb","Junction","Ryssjöbrink","59.2095","17.3357","Sweden"
"SERye","Junction","Rynge","55.4689","13.6706","Sweden"
"SERyg","Junction","Ryggen","60.591","15.9462","Sweden"
"SERym","SmallStation","Rydaholm","56.9864","14.3115","Sweden"
"SERyr","Junction","Ryr","58.3318","12.1387","Sweden"
"SERåg","SmallStation","Rågsveden","60.4795","14.0652","Sweden"
"SERån","Junction","Råsjön","58.8309","12.4119","Sweden"
"SERås","Junction","Råskogen","58.6421","12.3808","Sweden"
"SERäp","Junction","Räppe","56.8837","14.7369","Sweden"
"SERö","Junction","Rödberg","57.6778","12.6166","Sweden"
"SES","SmallStation","Sveg","62.0345","14.352","Sweden"
"SESae","SmallStation","Sandared","57.7095","12.7925","Sweden"
"SESak","Junction","Sandbäck","56.1635","14.6345","Sweden"
"SESal","SmallStation","Svalöv","55.9135","13.1105","Sweden"
"SESam","Junction","Samnan","59.9115","17.6551","Sweden"
"SESas","Junction","Salsta","60.0466","17.7284","Sweden"
"SESau","Junction","Stora Tuna","60.4418","15.4969","Sweden"
"SESaö","Junction","Skabersjö","55.5339","13.1541","Sweden"
"SESba","Junction","Spannarboda","59.5763","15.5075","Sweden"
"SESbe","Junction","Saluböle","63.4774","19.2872","Sweden"
"SESbi","Junction","Storblåliden","65.4468","20.4289","Sweden"
"SESbk","Junction","Stenbacken","68.2498","19.5024","Sweden"
"SESbl","Junction","Skärblacka","58.5751","15.9103","Sweden"
"SESby","Junction","Norra Sunderbyn","65.6978","21.865","Sweden"
"SESbä","Junction","Sågbäcken","66.0621","22.5955","Sweden"
"SESci","SmallStation","Stockholm City","59.3324","18.0649","Sweden"
"SESde","Junction","Sköldinge","59.0302","16.4542","Sweden"
"SESdm","Junction","Sandmon","59.6028","13.6343","Sweden"
"SESdr","SmallStation","Smålandsstenar","57.1614","13.415","Sweden"
"SESea","SmallStation","Svedala","55.5069","13.232","Sweden"
"SESee","SmallStation","Skene","57.4884","12.6494","Sweden"
"SESel","Junction","Sävedalen","57.7329","12.0665","Sweden"
"SESen","Junction","Stavreviken","62.5535","17.4066","Sweden"
"SESet","Junction","Stensundberget","65.8491","23.3822","Sweden"
"SESf","SmallStation","Storfors","59.533","14.2717","Sweden"
"SESfl","SmallStation","Säffle","59.1324","12.9162","Sweden"
"SESfn","Junction","Storflon","63.3513","14.3865","Sweden"
"SESg","SmallStation","Stehag","55.9003","13.3934","Sweden"
"SESgm","Junction","Segmon","59.2747","13.0385","Sweden"
"SESgs","SmallStation","Strängnäs","59.3703","17.0282","Sweden"
"SESgä","SmallStation","Slagnäs","65.5859","18.1579","Sweden"
"SESh","Junction","Stjärnhov","59.0829","17.0053","Sweden"
"SEShr","SmallStation","Surahammar","59.7066","16.2196","Sweden"
"SEShv","SmallStation","Söderhamns västra","61.2994","17.0349","Sweden"
"SESi","SmallStation","Simrishamn","55.5536","14.3511","Sweden"
"SESid","Junction","Silverdalens bruk","57.5362","15.7592","Sweden"
"SESie","Junction","Stävie","55.7475","13.0742","Sweden"
"SESii","Junction","Silinge","59.0123","16.5666","Sweden"
"SESik","Junction","Svartvik","62.3227","17.3673","Sweden"
"SESir","Junction","Sorsele industrispår","65.5628","17.5245","Sweden"
"SESk","SmallStation","Skövde central","58.389","13.8519","Sweden"
"SESkb","SmallStation","Skinnskatteberg","59.8326","15.6916","Sweden"
"SESkbl","Junction","Skälebol","58.6071","12.3931","Sweden"
"SESkby","Junction","Skavstaby","59.5506","17.8959","Sweden"
"SESke","SmallStation","Skee","58.9234","11.2621","Sweden"
"SESkg","SmallStation","Skogås","59.2194","18.1536","Sweden"
"SESkk","Junction","Skönvik","62.4689","17.3281","Sweden"
"SESkl","Junction","Skellefteå","64.7535","20.9557","Sweden"
"SESkm","Junction","Stenkumla","58.9614","15.0435","Sweden"
"SESkms","Junction","Skymossen","59.02","15.0889","Sweden"
"SESkn","SmallStation","Skänninge","58.3926","15.0925","Sweden"
"SESkr","Junction","Skåre","59.4294","13.4484","Sweden"
"SESkrp","Junction","Skogstorp","59.3318","16.4734","Sweden"
"SESkv","Junction","Skebokvarn","59.0653","16.7178","Sweden"
"SESkä","Junction","Skästra","61.7491","16.1641","Sweden"
"SESl","SmallStation","Sala","59.9257","16.6045","Sweden"
"SESlbk","Junction","Solbacka","62.5046","17.3601","Sweden"
"SESle","Junction","Slätte","58.7644","14.2009","Sweden"
"SESlg","Junction","Sällinge","59.5197","15.4804","Sweden"
"SESlj","Junction","Selsjön","63.307","17.2123","Sweden"
"SESlm","Junction","Solum","63.1153","17.7828","Sweden"
"SESlnä","Junction","Sellnäs","60.4134","15.3807","Sweden"
"SESm","SmallStation","Sandhem","57.9883","13.7727","Sweden"
"SESmd","SmallStation","Strömstad","58.9365","11.1734","Sweden"
"SESmj","SmallStation","Smedjebacken","60.1365","15.4056","Sweden"
"SESmn","Junction","Sommen","58.1458","14.9783","Sweden"
"SESmo","Junction","Strömsbro","60.6993","17.1547","Sweden"
"SESmt","Junction","Simonstorp","58.7839","16.157","Sweden"
"SESmå","Junction","Simeå","61.5719","16.3267","Sweden"
"SESn","SmallStation","Stenkullen","57.7917","12.3146","Sweden"
"SESnb","Junction","Snickarbo","60.1911","16.0564","Sweden"
"SESne","Junction","Sandarne","61.2651","17.1484","Sweden"
"SESngå","Junction","Singsån","63.0289","16.3769","Sweden"
"SESnl","Junction","Skanlog","59.4055","16.4453","Sweden"
"SESnt","Junction","Snyten","59.9916","16.0238","Sweden"
"SESnu","SmallStation","Stenungsund","58.0727","11.8247","Sweden"
"SESnv","SmallStation","Sandviken","60.6142","16.7776","Sweden"
"SESo","SmallStation","Solna","59.3655","18.0103","Sweden"
"SESoa","Junction","Stordalen","68.3436","19.0705","Sweden"
"SESod","SmallStation","Stockholm Odenplan","59.3444","18.0451","Sweden"
"SESoe","Junction","Stolpen","57.5915","14.5528","Sweden"
"SESol","SmallStation","Sollentuna","59.4294","17.9475","Sweden"
"SESom","Junction","Stormyran","63.3686","17.4473","Sweden"
"SESop","Junction","Skorped","63.3854","17.8595","Sweden"
"SESp","Junction","Sparreholm","59.0758","16.8286","Sweden"
"SESph","SmallStation","Skeppshult","57.125","13.3569","Sweden"
"SESpj","Junction","Spjutsbygd","56.3103","15.5943","Sweden"
"SESpjb","Junction","Spjutbäcken","59.3287","14.1388","Sweden"
"SESpk","Junction","Sprängsviken","62.8604","17.8707","Sweden"
"SESpn","Junction","Stolpstugan","59.0121","16.3435","Sweden"
"SESpå","SmallStation","Spånga","59.3841","17.8973","Sweden"
"SESr","SmallStation","Storå","59.7189","15.1407","Sweden"
"SESre","SmallStation","Söderbärke","60.0725","15.5371","Sweden"
"SESro","SmallStation","Storebro","57.584","15.8522","Sweden"
"SESrp","SmallStation","Skurup","55.4802","13.4981","Sweden"
"SESrr","Junction","Skattkärr","59.4086","13.6718","Sweden"
"SESrs","SmallStation","Sorsele","65.535","17.5428","Sweden"
"SESrt","Junction","Strömtorp","59.2506","14.4115","Sweden"
"SESru","Junction","Skruv","56.6778","15.3672","Sweden"
"SESrv","SmallStation","Storvreta","59.9563","17.7062","Sweden"
"SESs","SmallStation","Stenstorp","58.2729","13.7127","Sweden"
"SESsa","Junction","Sjösa","58.7822","17.0964","Sweden"
"SESsh","Junction","Strömsholm","59.501","16.2677","Sweden"
"SESst","SmallStation","Stockholms Södra","59.3134","18.0605","Sweden"
"SESsä","SmallStation","Segersäng","59.0295","17.9271","Sweden"
"SESt","SmallStation","Säter","60.3466","15.7571","Sweden"
"SEStd","SmallStation","Stöde","62.4198","16.5991","Sweden"
"SESten","Junction","Stegsskogen","61.8479","17.2018","Sweden"
"SESth","SmallStation","Stora Höga","58.0187","11.8358","Sweden"
"SESti","Junction","Storbergets industrispår","64.2563","16.4512","Sweden"
"SEStk","Junction","Sikträsk","67.1744","20.4423","Sweden"
"SEStl","SmallStation","Ställdalen","59.9344","14.9417","Sweden"
"SESto","Junction","Storträsk","65.154","20.06","Sweden"
"SESton","Junction","Stockviksverkens nedre","62.3471","17.3608","Sweden"
"SEStp","SmallStation","Svågertorp","55.5473","12.9933","Sweden"
"SEStr","SmallStation","Storlien","63.3159","12.1006","Sweden"
"SESts","Junction","Storsund","65.5784","20.6221","Sweden"
"SEStv","SmallStation","Stavre","62.8261","15.3118","Sweden"
"SEStå","SmallStation","Sollefteå","63.167","17.2651","Sweden"
"SEStä","Junction","Sandträsk","66.1266","21.318","Sweden"
"SEStö","Junction","Strångsjö","58.9061","16.198","Sweden"
"SESub","SmallStation","Sundbyberg","59.3608","17.9718","Sweden"
"SESuc","SmallStation","Sundsvalls central","62.3866","17.3149","Sweden"
"SESum","SmallStation","Storuman","65.096","17.1099","Sweden"
"SESun","SmallStation","Sunne","59.8355","13.1492","Sweden"
"SESur","SmallStation","Skutskär","60.626","17.4046","Sweden"
"SESus","SmallStation","Sunderbyns sjukhus","65.6733","21.9354","Sweden"
"SESv","SmallStation","Storvik","60.5819","16.5343","Sweden"
"SESve","Junction","Säve","57.8042","11.9123","Sweden"
"SESvg","SmallStation","Svenshögen","58.1447","11.9361","Sweden"
"SESvi","SmallStation","Södra Vi","57.7402","15.7929","Sweden"
"SESvj","Junction","Svedje","62.6899","17.8861","Sweden"
"SESvk","SmallStation","Svenstavik","62.7719","14.4407","Sweden"
"SESvt","Junction","Sävast","65.7624","21.7665","Sweden"
"SESvå","Junction","Svartå","59.1323","14.5159","Sweden"
"SESvö","Junction","Skytts Vemmerlöv","55.4101","13.1541","Sweden"
"SESy","SmallStation","Stockaryd","57.3098","14.5919","Sweden"
"SESyd","SmallStation","Skillingaryd","57.4284","14.0907","Sweden"
"SESån","Junction","Stenåsen","59.5033","13.3378","Sweden"
"SESårs","Junction","Söråkers södra","62.5499","17.4405","Sweden"
"SESän","Junction","Sävastklinten","65.7763","21.7494","Sweden"
"SESäp","Junction","Skärpan","60.3081","17.5769","Sweden"
"SESäu","Junction","Sunnäsbruk","61.1086","17.1253","Sweden"
"SESäy","Junction","Säby","59.8291","17.7026","Sweden"
"SESöc","SmallStation","Södertälje centrum","59.1911","17.6284","Sweden"
"SESöd","SmallStation","Södertälje hamn","59.1776","17.6472","Sweden"
"SESödy","Junction","Söderby","59.1964","17.7936","Sweden"
"SESög","SmallStation","Sölvesborg","56.0494","14.5831","Sweden"
"SESök","Junction","Stöcke","63.7428","20.2587","Sweden"
"SESöt","Junction","Södra utmarken","56.2371","12.8455","Sweden"
"SESöu","SmallStation","Södertälje syd undre","59.1634","17.6455","Sweden"
"SESöv","Junction","Skelleftehamns övre","64.6872","21.2275","Sweden"
"SESöö","SmallStation","Södertälje syd övre","59.1633","17.648","Sweden"
"SET","SmallStation","Töreboda","58.7046","14.1272","Sweden"
"SETb","SmallStation","Tillberga","59.6874","16.6241","Sweden"
"SETba","Junction","Tystberga","58.8485","17.2361","Sweden"
"SETbn","Junction","Torbacken","58.0687","12.243","Sweden"
"SETbo","SmallStation","Tobo","60.259","17.6338","Sweden"
"SETdj","Junction","Trödje","60.8144","17.1991","Sweden"
"SETeo","Junction","Torebo","56.9491","12.4557","Sweden"
"SETet","Junction","Tolikberget","66.4133","20.9072","Sweden"
"SETgp","SmallStation","Tågarp","55.9274","12.9474","Sweden"
"SETh","SmallStation","Tenhult","57.7052","14.3266","Sweden"
"SEThd","SmallStation","Tallhed","61.2101","14.7091","Sweden"
"SEThl","Junction","Tornhill","55.7381","13.1898","Sweden"
"SEThm","Junction","Träskholm","65.2322","20.0951","Sweden"
"SEThn","SmallStation","Trollhättan","58.2876","12.2989","Sweden"
"SEThö","SmallStation","Trehörningsjö","63.6914","18.8656","Sweden"
"SETip","SmallStation","Tierp","60.3458","17.5131","Sweden"
"SETjä","Junction","Tjärnvik","62.1","17.3197","Sweden"
"SETl","Junction","Tallåsen","61.8673","16.0127","Sweden"
"SETlg","SmallStation","Tällberg","60.8188","15.0204","Sweden"
"SETli","SmallStation","Tomelilla","55.5458","13.9497","Sweden"
"SETmö","Junction","Tomteboda övre","59.3511","18.0164","Sweden"
"SETnk","SmallStation","Torneträsk","68.2175","19.7079","Sweden"
"SETns","SmallStation","Tranås","58.0381","14.9751","Sweden"
"SETnu","SmallStation","Tanum","58.7136","11.2956","Sweden"
"SETo","SmallStation","Torpshammar","62.4727","16.3354","Sweden"
"SETot","Junction","Toresta","59.5336","17.5745","Sweden"
"SETou","SmallStation","Torup","56.9576","13.0795","Sweden"
"SEToy","SmallStation","Torsby","60.1365","13.0027","Sweden"
"SETp","SmallStation","Teckomatorp","55.8705","13.0825","Sweden"
"SETre","SmallStation","Trekanten","56.7029","16.1134","Sweden"
"SETrg","SmallStation","Trelleborg","55.3715","13.1611","Sweden"
"SETri","SmallStation","Triangeln","55.5925","13.0009","Sweden"
"SETrå","SmallStation","Timrå","62.4864","17.3303","Sweden"
"SETs","SmallStation","Tungelsta","59.1028","18.0465","Sweden"
"SETsg","Junction","Tågsjöberg","63.6735","16.742","Sweden"
"SETsl","Junction","Tisselskog","58.8972","12.3856","Sweden"
"SETså","SmallStation","Torsåker","60.5146","16.4903","Sweden"
"SETtu","Junction","Tortuna","59.6698","16.7208","Sweden"
"SETu","SmallStation","Tumba","59.1995","17.8384","Sweden"
"SETun","Junction","Tunneby","56.4576","14.0828","Sweden"
"SETvb","Junction","Tväråbäck","63.9895","19.7241","Sweden"
"SETvä","SmallStation","Tvärålund","64.0997","19.6776","Sweden"
"SETy","SmallStation","Tyringe","56.1596","13.5984","Sweden"
"SETye","Junction","Tyllered","57.0199","12.3916","Sweden"
"SETåv","Junction","Trångsviken","63.3318","14.0134","Sweden"
"SETäl","Junction","Tälle","59.0502","15.019","Sweden"
"SETö","SmallStation","Tjörnarp","56.0015","13.6312","Sweden"
"SETöe","Junction","Tösse","58.9714","12.6434","Sweden"
"SETöv","Junction","Töva","62.3737","17.1098","Sweden"
"SEU","SmallStation","Uppsala central","59.8579","17.6487","Sweden"
"SEUdl","SmallStation","Ulriksdal","59.3798","18.0013","Sweden"
"SEUf","SmallStation","Ulriksfors","63.8323","15.6208","Sweden"
"SEUly","Junction","Ulvshyttan","60.3301","15.3568","Sweden"
"SEUn","SmallStation","Undersåker","63.315","13.2385","Sweden"
"SEUna","Junction","Uppsala norra","59.8672","17.6122","Sweden"
"SEUpv","SmallStation","Upplands Väsby","59.5205","17.8992","Sweden"
"SEUtp","Junction","Ulvstorp","57.4771","14.6893","Sweden"
"SEUts","Junction","Utsikten","59.2031","17.8964","Sweden"
"SEUv","SmallStation","Uddevalla central","58.3542","11.9234","Sweden"
"SEUvn","Junction","Ursviken","64.7084","21.17","Sweden"
"SEUå","SmallStation","Umeå central","63.8301","20.267","Sweden"
"SEUågb","Junction","Umeå godsbangård","63.8447","20.2375","Sweden"
"SEUåö","SmallStation","Umeå östra","63.8182","20.2936","Sweden"
"SEV","SmallStation","Värnamo","57.1864","14.036","Sweden"
"SEVaa","SmallStation","Vara","58.261","12.9515","Sweden"
"SEVag","SmallStation","Vargön","58.3598","12.3912","Sweden"
"SEVaj","SmallStation","Varjisträsk","66.0446","19.5299","Sweden"
"SEVb","SmallStation","Varberg","57.1094","12.2481","Sweden"
"SEVdb","SmallStation","Värmlands Bro","59.1853","13.0139","Sweden"
"SEVdi","SmallStation","Veddige","57.2667","12.3368","Sweden"
"SEVdn","SmallStation","Vindeln","64.2041","19.714","Sweden"
"SEVdv","Junction","Vedevåg","59.5236","15.2823","Sweden"
"SEVe","SmallStation","Väse","59.3816","13.8532","Sweden"
"SEVeas","Junction","Velanda södra","58.2181","12.3255","Sweden"
"SEVed","SmallStation","Vedum","58.169","12.9987","Sweden"
"SEVf","Junction","Vartofta","58.0921","13.628","Sweden"
"SEVfa","SmallStation","Vissefjärda","56.538","15.5826","Sweden"
"SEVfo","SmallStation","Viskafors","57.6293","12.8451","Sweden"
"SEVg","SmallStation","Vänersborg central","58.3775","12.3187","Sweden"
"SEVgd","SmallStation","Vaggeryd","57.4982","14.1454","Sweden"
"SEVgå","SmallStation","Vårgårda","58.0311","12.8093","Sweden"
"SEVh","Junction","Vegeholm","56.2087","12.7938","Sweden"
"SEVhd","SmallStation","Vagnhärad","58.9458","17.4988","Sweden"
"SEVhe","SmallStation","Västerhaninge","59.123","18.1034","Sweden"
"SEVhy","Junction","Vikmanshyttan","60.2966","15.8624","Sweden"
"SEVia","Junction","Via","61.8079","17.1911","Sweden"
"SEVib","SmallStation","Vimmerby","57.663","15.8585","Sweden"
"SEVibh","Junction","Vimmerby Hamra","57.6371","15.869","Sweden"
"SEVid","SmallStation","Västra Ingelstad","55.4915","13.1065","Sweden"
"SEVim","Junction","Vimnarp","57.7076","14.6928","Sweden"
"SEVip","Junction","Viarp","56.333","12.8073","Sweden"
"SEVisk","Junction","Viskan","62.4495","16.4335","Sweden"
"SEVj","SmallStation","Vassijaure","68.4296","18.2577","Sweden"
"SEVjm","SmallStation","Vojmån","64.7918","16.8165","Sweden"
"SEVk","SmallStation","Västervik","57.7556","16.6429","Sweden"
"SEVl","SmallStation","Vallsta","61.5181","16.3675","Sweden"
"SEVlb","SmallStation","Vilhelmsborg","55.427","13.732","Sweden"
"SEVld","Junction","Vinlidsberg","65.017","17.0634","Sweden"
"SEVln","Junction","Vallnäs","57.6177","15.4748","Sweden"
"SEVm","Junction","Vattjom","62.3673","17.0058","Sweden"
"SEVma","SmallStation","Vilhelmina","64.623","16.6514","Sweden"
"SEVmat","Junction","Vilhelmina timmer","64.6494","16.6138","Sweden"
"SEVme","Junction","VME","59.4058","16.446","Sweden"
"SEVmu","Junction","Villersmuren","60.6072","16.6963","Sweden"
"SEVn","Junction","Värtan","59.3511","18.0949","Sweden"
"SEVns","SmallStation","Vännäs","63.9103","19.749","Sweden"
"SEVnt","Junction","Vackernäset","63.0041","16.118","Sweden"
"SEVo","SmallStation","Vansbro","60.5125","14.2261","Sweden"
"SEVpm","Junction","Varpemossen","58.1277","12.3032","Sweden"
"SEVr","SmallStation","Vingåker","59.0421","15.8765","Sweden"
"SEVre","Junction","Vrena","58.8624","16.7043","Sweden"
"SEVru","Junction","Vekerum","56.177","14.7807","Sweden"
"SEVrö","Junction","Värö","57.2386","12.1961","Sweden"
"SEVs","SmallStation","Vislanda","56.7887","14.4565","Sweden"
"SEVsd","SmallStation","Vikingstad","58.3835","15.433","Sweden"
"SEVsg","SmallStation","Valskog","59.4436","15.9513","Sweden"
"SEVsk","Junction","Vuonoskogen","65.8605","23.7249","Sweden"
"SEVso","SmallStation","Virsbo","59.8719","16.0843","Sweden"
"SEVsö","Junction","Viresjö","58.2039","15.913","Sweden"
"SEVt","Junction","Vretstorp","59.0216","14.8649","Sweden"
"SEVta","SmallStation","Vetlanda","57.4259","15.0816","Sweden"
"SEVto","Junction","Västra Torup","56.1442","13.5077","Sweden"
"SEVv","Junction","Vallvik","61.1934","17.1293","Sweden"
"SEVå","SmallStation","Västerås central","59.6077","16.5529","Sweden"
"SEVåb","Junction","Vålberg","59.3989","13.1974","Sweden"
"SEVåk","SmallStation","Vallåkra","55.9638","12.8622","Sweden"
"SEVån","Junction","Västerås norra","59.646","16.5831","Sweden"
"SEVä","Junction","Väring","58.5115","13.9594","Sweden"
"SEVäd","Junction","Vätteryd","56.0192","13.6549","Sweden"
"SEVän","Junction","Vännäs norra","63.9295","19.7414","Sweden"
"SEVäy","SmallStation","Västeraspby","63.0557","17.7476","Sweden"
"SEVö","SmallStation","Växjö","56.8767","14.8053","Sweden"
"SEVöv","SmallStation","Vinslöv","56.1049","13.9165","Sweden"
"SEY","SmallStation","Ystad","55.4274","13.8255","Sweden"
"SEYb","SmallStation","Ytterby","57.8623","11.9174","Sweden"
"SEYl","SmallStation","Ytterhogdal","62.1973","14.8554","Sweden"
"SEYö","Junction","Yttersjön","64.4104","19.6594","Sweden"
"SEÅ","Junction","Åsbro","58.9982","15.0612","Sweden"
"SEÅb","SmallStation","Åsensbruk","58.8054","12.4256","Sweden"
"SEÅba","Junction","Ålberga","58.7241","16.5774","Sweden"
"SEÅbe","SmallStation","Årstaberg","59.2994","18.0277","Sweden"
"SEÅbs","Junction","Åby södra","58.6589","16.1804","Sweden"
"SEÅd","Junction","Ådalsliden","63.4396","16.879","Sweden"
"SEÅg","SmallStation","Ånge","62.5237","15.6568","Sweden"
"SEÅgy","Junction","Ångebyn","62.5242","15.6099","Sweden"
"SEÅh","Junction","Åshammar","60.6485","16.5479","Sweden"
"SEÅhus","Junction","Åhus","55.9276","14.3007","Sweden"
"SEÅk","SmallStation","Åkarp","55.6573","13.1082","Sweden"
"SEÅkg","Junction","Årskogen","62.1438","17.3484","Sweden"
"SEÅks","Junction","Åkers styckebruk","59.2523","17.0952","Sweden"
"SEÅkt","Junction","Åskott","63.2802","14.6352","Sweden"
"SEÅl","SmallStation","Åmål","59.0464","12.6983","Sweden"
"SEÅlg","Junction","Ålsäng","59.4157","15.7102","Sweden"
"SEÅm","Junction","Åmsele","64.4887","19.325","Sweden"
"SEÅmn","Junction","Ångsågsmossen","56.2124","14.9775","Sweden"
"SEÅmy","Junction","Åmyran","61.9898","17.2579","Sweden"
"SEÅnm","Junction","Ånimskog","58.8772","12.5689","Sweden"
"SEÅnn","SmallStation","Ånn","63.3214","12.539","Sweden"
"SEÅp","SmallStation","Åstorp","56.1333","12.9511","Sweden"
"SEÅrd","Junction","Åryd","56.8208","14.9835","Sweden"
"SEÅre","SmallStation","Åre","63.3994","13.0749","Sweden"
"SEÅsal","SmallStation","Åsarna central","62.6471","14.3745","Sweden"
"SEÅst","Junction","Åsträsk","64.6157","19.9752","Sweden"
"SEÅt","SmallStation","Åmotfors","59.7684","12.3664","Sweden"
"SEÅvg","SmallStation","Åtvidaberg","58.2036","16.0021","Sweden"
"SEÄ","SmallStation","Ängelholm","56.2468","12.8534","Sweden"
"SEÄbg","SmallStation","Ängelsberg","59.957","16.0092","Sweden"
"SEÄfs","Junction","Äggfors","63.295","13.7074","Sweden"
"SEÄh","SmallStation","Älmhult","56.55","14.1368","Sweden"
"SEÄl","Junction","Älgarås","58.8135","14.2554","Sweden"
"SEÄlo","SmallStation","Älvho","61.498","14.7473","Sweden"
"SEÄn","SmallStation","Älvängen","57.9544","12.1066","Sweden"
"SEÄng","SmallStation","Äng","57.6924","14.5668","Sweden"
"SEÄnö","Junction","Ängersjö","63.6038","19.8046","Sweden"
"SEÄs","SmallStation","Älvsjö","59.2786","18.0113","Sweden"
"SEÄsg","Junction","Älvsjö godsbangård","59.2911","18.0208","Sweden"
"SEÄtk","Junction","Ättekulla","56.0216","12.7677","Sweden"
"SEÄy","SmallStation","Älvsbyn","65.6782","20.9933","Sweden"
"SEÖ","SmallStation","Örtofta","55.7785","13.2427","Sweden"
"SEÖa","Junction","Ökna","59.4012","15.7251","Sweden"
"SEÖal","Junction","Österalnö","63.3551","18.515","Sweden"
"SEÖbn","Junction","Örabäcken","62.1113","15.7547","Sweden"
"SEÖda","SmallStation","Ödåkra","56.1047","12.7451","Sweden"
"SEÖg","SmallStation","Östra Grevie","55.4644","13.1345","Sweden"
"SEÖh","SmallStation","Örbyhus","60.2293","17.7035","Sweden"
"SEÖhlg","Junction","Överhogdals grusgrop","62.2319","14.8233","Sweden"
"SEÖj","Junction","Östansjö","59.0456","14.9813","Sweden"
"SEÖk","SmallStation","Örnsköldsviks central","63.2884","18.7047","Sweden"
"SEÖkn","SmallStation","Örnsköldsvik norra","63.3061","18.7249","Sweden"
"SEÖl","Junction","Ölme","59.3609","14.0054","Sweden"
"SEÖna","Junction","Önaskogen","58.6215","15.1211","Sweden"
"SEÖnd","SmallStation","Önnestad","56.0667","14.0168","Sweden"
"SEÖr","SmallStation","Örebro central","59.2782","15.211","Sweden"
"SEÖrs","SmallStation","Örsjö","56.6967","15.7498","Sweden"
"SEÖs","SmallStation","Östersunds central","63.17","14.6381","Sweden"
"SEÖso","SmallStation","Ösmo","58.9845","17.9026","Sweden"
"SEÖså","Junction","Österås","63.2113","17.1844","Sweden"
"SEÖte","SmallStation","Östertälje","59.185","17.6584","Sweden"
"SEÖv","Junction","Östavall","62.4293","15.4732","Sweden"
"SEÖvm","SmallStation","Överum","57.9824","16.3255","Sweden"
"SEÖvn","SmallStation","Östervärn","55.6068","13.0336","Sweden"
"SEÖvö","Junction","Övsjö","62.9649","15.9864","Sweden"
"SEÖx","SmallStation","Öxnered","58.3568","12.2726","Sweden"
"SEÖä","Junction","Öreälv","63.7936","19.3434","Sweden"
"EU00234","BorderPoint","Kornsjö gränsen","58.93476","11.66987","Sweden"
"EU00235","BorderPoint","Charlottenberg gränsen","59.93187","12.24341","Sweden"
"EU00236","BorderPoint","Storlien gränsen","63.337","12.0605","Sweden"
"EU00237","BorderPoint","Riksgränsen Vj-Bjf","68.43004","18.10572","Sweden"
"EU00239","BorderPoint","Riksgräns Haparanda - Tornio","65.827855","24.150731","Sweden"
"SEPhm","Junction","Peberholm","55.6006","12.7487","Sweden"
"EU00141","BorderPoint","Peberholm gränsen","55.605923","12.738071","Sweden"
"SE00100","DomesticBorderPoint","Öresundsbro Konsortiet - Trafikverket km 281+810","55.565508","12.90286","Sweden"
"SELnk","Junction","Lernacken","55.5656","12.9055","Sweden"
